City_name,Country,Date,Cloudiness,Lat,Lng,Humidity,Max_Temp,Wind
Batagay-Alyta,RU,1579330531,0,67.8,130.41,78,-26.75,4.79
Mitsamiouli,KM,1579330531,40,-11.38,43.28,79,84.2,13.87
Albany,US,1579330375,1,42.6,-73.97,65,12.0,5.82
Mar del Plata,AR,1579330240,0,-38.0,-57.56,64,62.01,8.01
New Norfolk,AU,1579330532,20,-42.78,147.06,45,63.0,17.22
Punta Arenas,CL,1579330532,75,-53.15,-70.92,76,50.0,18.34
Vardo,NO,1579330532,0,70.37,31.11,61,19.63,6.51
Atuona,PF,1579330533,100,-9.8,-139.03,73,81.9,17.4
Pevek,RU,1579330533,100,69.7,170.31,96,-14.19,3.83
Rikitea,PF,1579330533,0,-23.12,-134.97,81,78.24,17.63
Casa Branca,BR,1579330533,83,-21.77,-47.09,93,64.74,3.67
Puerto Colombia,CO,1579330533,24,10.99,-74.95,39,78.8,13.87
Pirapemas,BR,1579330534,99,-3.73,-44.22,97,72.95,1.72
Jamestown,US,1579330244,75,42.1,-79.24,78,23.0,4.7
Auki,SB,1579330534,90,-8.77,160.7,74,84.15,16.13
Cape Town,ZA,1579330433,20,-33.93,18.42,53,75.0,20.8
Provideniya,RU,1579330534,47,64.38,-173.3,94,2.12,7.45
Bluff,NZ,1579330535,100,-46.6,168.33,55,66.61,6.22
Hilo,US,1579330535,75,19.73,-155.09,69,75.2,10.29
Gloversville,US,1579330535,1,43.05,-74.34,65,10.4,5.82
Ushuaia,AR,1579330535,90,-54.8,-68.3,100,44.6,13.87
Hithadhoo,MV,1579330536,90,-0.6,73.08,76,82.99,14.61
Bredasdorp,ZA,1579330536,100,-34.53,20.04,68,66.99,14.99
Hobart,AU,1579330449,20,-42.88,147.33,45,63.0,17.22
Bodmin,GB,1579330465,33,50.47,-4.72,86,37.4,6.93
Almenara,BR,1579330537,38,-16.18,-40.69,93,70.09,0.2
Kapaa,US,1579330537,90,22.08,-159.32,68,71.6,21.92
Nardaran,AZ,1579330537,75,40.56,50.01,75,42.8,29.97
Faanui,PF,1579330537,83,-16.48,-151.75,78,82.04,19.51
Manbij,SY,1579330538,75,36.53,37.95,85,41.0,8.93
Bikapur,IN,1579330538,1,26.6,82.13,65,68.9,0.89
Poum,NC,1579330538,0,-20.23,164.02,78,79.56,17.54
Sapa,PH,1579330538,1,5.15,120.32,72,83.37,5.61
Hasaki,JP,1579330538,75,35.73,140.83,86,39.2,17.22
Nome,US,1579330539,1,64.5,-165.41,55,6.8,8.05
Xiongyue,CN,1579330539,30,40.18,122.12,40,32.18,6.2
Bethel,US,1579330539,1,41.37,-73.41,40,19.99,9.17
Tuktoyaktuk,CA,1579330539,5,69.45,-133.04,84,-2.2,17.22
Butaritari,KI,1579330539,100,3.07,172.79,78,84.45,13.33
Snaase,NO,1579330540,100,64.25,12.38,98,27.5,5.28
Baruun-Urt,MN,1579330540,97,46.68,113.28,92,3.72,7.92
Mataura,NZ,1579330540,100,-46.19,168.86,65,69.6,8.7
Calvinia,ZA,1579330540,46,-31.47,19.78,56,73.4,6.93
Benguela,AO,1579330540,88,-12.58,13.41,74,78.87,1.19
Biak,ID,1579330541,100,-0.91,122.88,79,83.77,12.06
Padang,ID,1579330300,72,-0.95,100.35,63,84.38,0.96
Zhezkazgan,KZ,1579330541,90,47.8,67.71,100,21.2,8.95
San Policarpo,PH,1579330541,2,12.18,125.51,80,81.9,7.02
Hatillo,PR,1579330542,40,18.49,-66.83,86,73.0,3.36
Qaanaaq,GL,1579330542,0,77.48,-69.36,62,-16.22,8.5
Leshukonskoye,RU,1579330542,14,64.9,45.76,95,3.67,1.3
Arraial do Cabo,BR,1579330542,98,-22.97,-42.03,76,74.91,16.17
Longyearbyen,SJ,1579330523,90,78.22,15.64,84,8.6,8.05
Hermanus,ZA,1579330543,99,-34.42,19.23,74,69.01,7.0
Chui,UY,1579330543,0,-33.7,-53.46,69,59.77,4.63
Mehamn,NO,1579330543,0,71.04,27.85,75,12.78,9.8
Barrow,US,1579330544,1,71.29,-156.79,70,1.4,4.7
Hualmay,PE,1579330544,60,-11.1,-77.61,89,66.54,3.22
Marawi,PH,1579330544,0,8.0,124.29,76,82.99,5.99
Port Alfred,ZA,1579330535,100,-33.59,26.89,98,68.0,15.32
San Jeronimo,PE,1579330545,49,-11.95,-75.28,90,36.9,2.1
Gogrial,SS,1579330545,56,8.53,28.1,22,73.04,11.3
Konstanz,DE,1579330545,100,47.66,9.18,93,39.99,3.36
Vila Franca do Campo,PT,1579330545,40,37.72,-25.43,93,62.6,5.82
Hobyo,SO,1579330545,42,5.35,48.53,55,80.47,22.37
Fortuna,US,1579330546,1,40.6,-124.16,89,50.0,12.75
Tansen,NP,1579330546,1,27.87,83.55,50,61.09,4.32
Busselton,AU,1579330546,0,-33.65,115.33,19,82.99,10.71
Saint George,US,1579330547,1,37.1,-113.58,68,37.0,4.7
Grindavik,IS,1579330547,75,63.84,-22.43,74,30.2,2.24
Saint-Philippe,RE,1579330547,100,-21.36,55.77,62,87.8,6.93
Broome,US,1579330547,1,42.25,-75.83,100,12.99,1.81
Cidreira,BR,1579330547,0,-30.18,-50.21,61,71.28,13.78
Pamekasan,ID,1579330548,9,-7.16,113.47,55,88.21,4.34
Thompson,CA,1579330548,75,55.74,-97.86,76,-9.4,9.17
Kibala,TD,1579330548,26,9.11,18.35,45,64.4,9.17
Saldanha,ZA,1579330548,9,-33.01,17.94,56,71.6,11.41
Samarai,PG,1579330548,1,-10.62,150.67,56,90.03,4.76
Arlit,NE,1579330505,27,18.74,7.39,38,57.49,10.67
Gamboma,CG,1579330549,100,-1.88,15.86,69,76.39,1.54
Castro,BR,1579330549,84,-24.79,-50.01,93,57.88,6.35
Saskylakh,RU,1579330549,99,71.92,114.08,92,-2.27,9.98
Northam,GB,1579330549,1,51.03,-4.22,100,35.01,2.24
Lebu,CL,1579330550,0,-37.62,-73.65,85,56.82,4.74
Avarua,CK,1579330550,100,-21.21,-159.78,94,80.6,12.75
Pochutla,MX,1579330550,11,15.74,-96.47,66,81.84,8.37
Carnarvon,AU,1579330550,0,-24.87,113.63,62,87.8,19.46
Sri Aman,MY,1579330550,75,1.24,111.46,66,89.6,3.36
Leningradskiy,RU,1579330551,98,69.38,178.42,100,-8.97,5.1
Vao,NC,1579330551,0,-22.67,167.48,78,77.52,19.98
Vaini,TO,1579330551,100,-21.2,-175.2,94,80.15,24.02
Khandagayty,RU,1579330552,100,50.73,92.05,85,-2.72,2.28
Alboraya,ES,1579330322,95,39.5,-0.35,75,53.01,8.05
Porto-Novo,BJ,1579330552,40,6.5,2.6,94,80.6,3.36
Ponta do Sol,PT,1579330552,40,32.67,-17.1,82,59.0,3.36
Puerto Ayora,EC,1579330553,48,-0.74,-90.35,62,75.99,4.81
Sola,VU,1579330553,67,-13.88,167.55,71,83.25,6.96
Port Elizabeth,ZA,1579330553,40,-33.92,25.57,68,69.8,9.17
Kavieng,PG,1579330553,16,-2.57,150.8,75,85.08,27.92
'Ahuimanu,US,1579330553,75,21.44,-157.84,64,73.4,17.22
Liwale,TZ,1579330554,100,-9.77,37.93,89,75.34,8.7
East London,ZA,1579330554,75,-33.02,27.91,88,71.6,9.17
Geraldton,AU,1579330554,30,-28.77,114.6,61,80.6,26.4
Saint-Pierre,RE,1579330554,100,-21.34,55.48,62,87.8,6.93
Balgazyn,RU,1579330554,100,51.0,95.2,89,7.03,1.21
Sangmelima,CM,1579330555,100,2.93,11.98,85,71.08,3.15
Arrondissement de Saintes,FR,1579330555,82,45.67,-0.75,93,39.2,5.82
Tiksi,RU,1579330555,99,71.69,128.87,84,-9.8,12.71
Lezajsk,PL,1579330555,100,50.26,22.42,92,30.99,5.82
Mehendiganj,BD,1579330556,0,22.82,90.53,42,77.38,5.99
Alyangula,AU,1579330556,16,-13.85,136.42,44,98.6,5.82
Nanortalik,GL,1579330556,100,60.14,-45.24,61,26.55,16.13
Bilibino,RU,1579330557,90,68.05,166.44,86,-18.18,3.89
Kiryat Gat,IL,1579330262,75,31.61,34.76,82,57.2,8.05
Yellowknife,CA,1579330557,5,62.46,-114.35,66,-29.0,5.82
Quatre Cocos,MU,1579330504,75,-20.21,57.76,79,84.2,10.29
Soligalich,RU,1579330557,100,59.08,42.29,97,33.37,7.02
Erdenet,MN,1579330558,4,49.03,104.08,78,1.74,4.72
Iquique,CL,1579330558,79,-20.22,-70.14,83,69.8,6.93
Lavrentiya,RU,1579330558,22,65.58,-171.0,86,-1.12,4.79
Mauranwan,IN,1579330558,90,26.43,80.88,100,57.2,2.24
Ostrovnoy,RU,1579330559,61,68.05,39.51,97,4.28,8.59
Yangi Marg`ilon,UZ,1579330559,0,40.43,71.72,64,33.8,2.24
Ust-Nera,RU,1579330559,83,64.57,143.2,100,-41.42,1.79
Ajdabiya,LY,1579330559,5,30.76,20.23,65,60.78,19.19
Road Town,VG,1579330559,20,18.42,-64.62,69,77.0,6.93
Katsuura,JP,1579330560,75,35.13,140.3,93,37.99,16.11
Quelimane,MZ,1579330504,40,-17.88,36.89,94,82.4,6.93
Rome,US,1579330560,1,43.21,-75.46,77,10.0,3.36
Ternuvate,UA,1579330560,0,47.83,36.13,92,26.6,6.71
Cayenne,GF,1579330337,90,4.93,-52.33,94,77.0,5.84
Windhoek,NA,1579330281,7,-22.56,17.08,56,73.4,1.12
Sangar,RU,1579330561,98,63.92,127.47,91,-19.01,9.13
Souillac,MU,1579330561,75,-20.52,57.52,79,84.2,10.29
Kalaleh,IR,1579330561,90,37.38,55.49,75,46.4,4.7
Bonavista,CA,1579330561,100,48.65,-53.11,88,25.14,56.86
Chokurdakh,RU,1579330562,75,70.63,147.92,91,-22.29,2.89
Mount Gambier,AU,1579330562,59,-37.83,140.77,47,75.2,16.11
Petauke,ZM,1579330562,100,-14.24,31.33,98,68.16,5.55
Lusambo,CD,1579330562,99,-4.97,23.45,95,71.11,2.53
Kaitangata,NZ,1579330563,100,-46.28,169.85,64,66.99,13.58
Smolenka,RU,1579330563,3,52.14,113.5,70,-0.4,2.24
Malpe,IN,1579330563,20,13.35,74.72,52,87.8,4.7
Omsukchan,RU,1579330563,100,62.53,155.8,99,-22.67,3.04
Severo-Kuril'sk,RU,1579330564,93,50.68,156.12,85,15.73,17.69
San Luis,AR,1579330564,37,-33.3,-66.34,36,72.46,14.63
Khatanga,RU,1579330564,100,71.97,102.5,96,-2.02,4.94
Gushikawa,JP,1579330564,75,26.35,127.87,63,60.8,21.92
Tomatlan,MX,1579330564,84,19.93,-105.25,55,70.09,3.06
Tandil,AR,1579330565,0,-37.32,-59.13,74,60.01,1.01
Kirakira,SB,1579330565,3,-10.45,161.92,70,83.23,1.79
Buala,SB,1579330565,50,-8.14,159.59,70,84.24,9.62
Karratha,AU,1579330565,45,-20.74,116.85,75,84.99,22.32
Mount Isa,AU,1579330565,0,-20.73,139.5,11,105.8,17.22
Nyagan,RU,1579330566,100,62.14,65.39,93,10.72,8.05
Coquimbo,CL,1579330566,98,-29.95,-71.34,93,59.0,2.24
Bambanglipuro,ID,1579330566,0,-7.95,110.28,56,87.48,9.31
Mumford,GH,1579330566,5,5.26,-0.76,92,75.25,3.85
Talnakh,RU,1579330567,100,69.49,88.4,74,-22.0,13.42
Puri,IN,1579330567,40,19.8,85.85,51,80.6,3.36
Torbay,CA,1579330567,90,47.67,-52.73,92,25.0,58.67
Kozmodemyansk,RU,1579330567,90,56.34,46.57,100,33.8,8.95
Nikolskoye,RU,1579330568,60,59.7,30.79,85,33.01,6.71
Mossamedes,AO,1579330568,84,-15.2,12.15,77,76.39,5.44
Usinsk,RU,1579330569,36,65.99,57.53,93,2.7,11.9
Inongo,CD,1579330569,100,-1.95,18.27,89,75.38,2.33
Kodiak,US,1579330569,90,57.79,-152.41,69,33.8,23.04
Cabo San Lucas,MX,1579330569,5,22.89,-109.91,59,69.01,9.17
Upernavik,GL,1579330569,23,72.79,-56.15,67,-11.15,5.95
Mangrol,IN,1579330570,0,21.12,70.12,49,68.23,14.03
Cherskiy,RU,1579330570,100,68.75,161.3,85,-20.92,1.7
College,US,1579330570,1,64.86,-147.8,74,3.2,1.88
Ancud,CL,1579330570,0,-41.87,-73.82,87,51.8,9.17
Sinnai,IT,1579330571,20,39.3,9.2,71,51.8,4.7
Genhe,CN,1579330571,67,50.78,121.52,84,2.37,1.77
Philadelphia,US,1579330354,1,39.95,-75.16,52,23.0,5.12
Srandakan,ID,1579330571,0,-7.94,110.25,56,87.48,9.31
Tasiilaq,GL,1579330571,20,65.61,-37.64,66,14.0,5.37
Bentiu,SS,1579330572,62,9.23,29.83,20,75.97,11.59
Kangema,KE,1579330572,93,-0.68,36.97,71,66.0,1.99
Portland,US,1579330500,90,45.52,-122.68,93,42.01,16.11
Riyadh,SA,1579330369,7,24.69,46.72,27,59.0,9.17
Benghazi,LY,1579330572,8,32.12,20.07,62,58.84,15.88
Price,US,1579330573,1,39.6,-110.81,72,18.0,10.29
Sur,OM,1579330573,0,22.57,59.53,46,68.63,11.9
Narsaq,GL,1579330573,100,60.92,-46.05,78,17.6,4.7
Starosubkhangulovo,RU,1579330573,92,53.1,57.44,96,19.49,2.48
Peniche,PT,1579330574,75,39.36,-9.38,100,61.0,14.99
Isiro,CD,1579330574,91,2.77,27.62,64,75.2,0.85
Caravelas,BR,1579330574,0,-17.71,-39.25,82,79.07,12.17
Tucuma,BR,1579330574,100,-0.18,-50.05,91,77.09,7.78
Kuvandyk,RU,1579330574,100,51.48,57.36,96,20.89,7.09
Muncar,ID,1579330575,0,-8.43,114.33,70,84.06,2.01
Kutum,SD,1579330575,57,14.2,24.67,40,53.62,4.27
Keroka,KE,1579330575,99,-0.78,34.95,83,65.19,0.81
Port Hardy,CA,1579330575,90,50.7,-127.42,84,32.0,40.26
Piopio,NZ,1579330575,88,-38.47,175.02,83,68.0,1.99
Khovd,MN,1579330372,100,48.01,91.64,57,13.12,4.03
Arequipa,PE,1579330576,75,-16.4,-71.53,77,60.8,4.09
Riwaka,NZ,1579330576,0,-41.08,173.0,44,69.01,1.99
Santa Cruz Cabralia,BR,1579330576,20,-16.28,-39.02,88,75.2,4.7
Tombouctou,ML,1579330446,4,20.0,-3.0,40,55.0,13.4
Jumla,NP,1579330577,82,29.27,82.18,99,30.47,3.2
Kyra,RU,1579330577,80,49.58,111.98,76,9.21,1.72
Sinnamary,GF,1579330577,82,5.38,-52.95,81,79.45,14.76
Malindi,KE,1579330578,100,-3.22,40.12,69,81.16,9.31
Codrington,AU,1579330578,46,-38.27,141.97,88,62.91,18.99
Goure,NE,1579330578,0,13.98,10.27,40,61.0,8.99
Gizo,SB,1579330578,22,-8.1,156.84,80,79.86,13.82
Gisborne,NZ,1579330578,98,-38.65,178.0,82,64.0,8.01
Hofn,IS,1579330579,14,64.25,-15.21,48,39.43,18.77
Taltal,CL,1579330579,46,-25.4,-70.48,91,61.48,5.37
Luau,AO,1579330579,100,-10.71,22.22,95,67.73,5.53
Novoagansk,RU,1579330580,79,61.94,76.66,94,-2.18,15.68
Ayagoz,KZ,1579330580,100,47.97,80.44,92,17.17,19.19
Karaman,TR,1579330580,99,37.08,33.25,96,22.19,11.92
George Town,MY,1579330496,20,5.41,100.34,55,91.4,9.17
Guerrero Negro,MX,1579330580,11,27.98,-114.06,81,58.35,8.3
Sena Madureira,BR,1579330581,98,-9.07,-68.66,98,72.43,2.24
Rawson,AR,1579330581,11,-43.3,-65.1,75,62.53,22.28
Iralaya,HN,1579330581,18,15.0,-83.23,76,80.83,20.56
Ballina,AU,1579330581,90,-28.87,153.57,94,77.0,9.17
Benavente,ES,1579330581,90,42.0,-5.68,93,35.6,3.36
Talara,PE,1579330582,89,-4.58,-81.27,92,69.91,16.67
Berdigestyakh,RU,1579330582,91,62.1,126.7,97,2.84,3.06
Belmonte,BR,1579330582,20,-15.86,-38.88,88,75.2,4.7
Nizhniy Kuranakh,RU,1579330582,100,58.84,125.49,94,6.89,5.48
Yinzhu,CN,1579330583,40,35.88,119.98,64,39.99,2.24
Cockburn Town,TC,1579330583,42,21.46,-71.14,76,76.17,21.63
Gornopravdinsk,RU,1579330583,65,60.05,69.9,87,4.75,9.75
Harper,LR,1579330583,0,4.38,-7.72,96,75.2,2.17
Haines Junction,CA,1579330583,0,60.75,-137.51,95,-26.48,5.3
Vestmannaeyjar,IS,1579330584,69,63.44,-20.27,63,38.21,5.26
Ugoofaaru,MV,1579330584,32,5.67,73.0,77,82.53,19.04
Puerto Lopez,CO,1579330584,16,4.08,-72.96,86,75.02,2.89
Sao Joao da Barra,BR,1579330584,100,-21.64,-41.05,87,74.16,17.96
Pacific Grove,US,1579330304,1,36.62,-121.92,86,46.0,6.8
Tornio,FI,1579330585,90,65.85,24.13,92,28.4,5.82
Bengkulu,ID,1579330585,100,-3.8,102.27,69,83.52,3.09
Mundo Nuevo (Ojo de Agua),MX,1579330585,33,18.7,-95.5,96,69.67,2.19
Zhangjiakou,CN,1579330553,100,40.81,114.88,86,15.98,5.77
Lompoc,US,1579330586,1,34.64,-120.46,93,51.01,3.36
Bambous Virieux,MU,1579330586,75,-20.34,57.76,79,84.2,10.29
Mahebourg,MU,1579330586,75,-20.41,57.7,79,84.2,10.29
Charters Towers,AU,1579330586,34,-20.1,146.27,25,96.58,13.24
Meulaboh,ID,1579330586,85,4.14,96.13,68,84.07,4.85
Antofagasta,CL,1579330587,6,-23.65,-70.4,88,66.2,3.36
Saint-Francois,FR,1579330587,75,46.42,3.91,92,39.0,2.24
Acapulco de Juarez,MX,1579330441,40,16.86,-99.89,83,77.0,2.24
Dumas,US,1579330587,1,35.87,-101.97,59,48.2,12.75
Dikson,RU,1579330588,100,73.51,80.55,98,-8.82,9.98
Umm Lajj,SA,1579330588,59,25.02,37.27,60,62.35,8.05
Adrar,MR,1579330588,0,20.5,-10.07,34,55.02,15.43
Faya,SA,1579330588,23,18.39,42.45,23,62.6,5.82
Green River,US,1579330588,1,41.53,-109.47,66,12.2,14.99
Chimbote,PE,1579330589,97,-9.09,-78.58,85,68.63,3.38
Kautokeino,NO,1579330589,100,69.01,23.04,85,6.82,2.42
Clarence Town,AU,1579330589,90,-32.58,151.78,88,71.01,14.99
Bay Roberts,CA,1579330589,90,47.6,-53.26,92,25.0,31.29
Aklavik,CA,1579330590,5,68.22,-135.01,70,-2.2,2.24
Andra,RU,1579330590,100,62.51,65.89,94,13.66,7.45
Salalah,OM,1579330308,20,17.02,54.09,47,75.2,4.7
Oyem,GA,1579330590,78,1.6,11.58,92,69.53,3.47
Neveklov,CZ,1579330591,75,49.75,14.53,93,35.01,1.12
Nova Olimpia,BR,1579330591,52,-14.8,-57.29,98,72.95,2.35
Bac Lieu,VN,1579330591,16,9.29,105.72,51,88.97,13.56
Tilichiki,RU,1579330591,34,60.47,166.1,83,-3.6,5.75
Ghugus,IN,1579330591,59,19.93,79.13,46,80.89,7.43
Onufriyivka,UA,1579330592,0,48.91,33.45,90,30.97,1.72
Rocha,UY,1579330592,0,-34.48,-54.33,76,52.88,5.82
Oistins,BB,1579330592,75,13.07,-59.53,74,78.8,14.99
Calella,ES,1579330593,90,41.62,2.67,93,52.0,3.36
Sandwick,GB,1579330593,40,60.0,-1.25,65,44.6,28.86
Koson,UZ,1579330593,0,39.04,65.58,49,32.0,6.93
Shubarshi,KZ,1579330593,100,48.59,57.19,88,19.65,5.68
Tutoia,BR,1579330594,94,-2.76,-42.27,93,74.93,2.44
Luderitz,NA,1579330594,0,-26.65,15.16,82,63.97,30.74
Flinders,AU,1579330594,100,-34.58,150.86,82,73.0,13.87
Mandalgovi,MN,1579330594,0,45.76,106.27,63,8.87,13.98
Nadvoitsy,RU,1579330595,100,63.87,34.32,95,27.21,6.73
Cabrera,DO,1579330595,46,19.64,-69.9,81,75.99,8.01
Kushima,JP,1579330595,40,31.46,131.23,35,57.2,19.46
San Andres,CO,1579330384,40,12.58,-81.7,74,82.4,19.46
Bistret,RO,1579330596,90,43.9,23.5,100,33.01,6.93
Honiara,SB,1579330525,20,-9.43,159.95,59,91.4,5.82
Inegol,TR,1579330596,75,40.08,29.51,100,37.4,1.12
Santa Rosa,PH,1579330597,75,14.31,121.11,70,87.8,4.7
Maragogi,BR,1579330332,16,-9.01,-35.22,75,80.6,11.54
Christchurch,NZ,1579330597,14,-43.53,172.63,67,62.01,16.11
Bowen,AU,1579330597,49,-20.02,148.23,62,87.01,8.05
Fort Nelson,CA,1579330597,90,58.81,-122.7,75,-18.4,2.3
Wenling,CN,1579330598,23,28.37,121.36,71,46.0,1.01
Airai,TL,1579330598,98,-8.93,125.41,85,76.37,2.57
Ormara,PK,1579330598,0,25.21,64.64,41,63.28,13.76
Campoverde,PE,1579330598,40,-8.48,-74.81,94,75.2,3.36
Te Anau,NZ,1579330599,69,-45.42,167.72,61,66.56,7.29
Churapcha,RU,1579330599,99,62.0,132.43,97,-20.49,4.21
Mucuri,BR,1579330599,2,-18.09,-39.55,91,74.8,4.5
Klaksvik,FO,1579330599,100,62.23,-6.59,80,39.2,23.04
Jieshi,CN,1579330599,72,22.81,115.83,66,64.99,7.25
Woodstock,CA,1579330600,90,43.13,-80.75,78,19.99,13.87
Horsham,GB,1579330328,0,51.06,-0.33,91,37.4,3.36
Paducah,US,1579330600,90,37.08,-88.6,61,54.0,11.41
Taoudenni,ML,1579330600,0,22.68,-3.98,37,53.82,11.95
Celestun,MX,1579330601,0,20.87,-90.4,77,75.31,18.39
Ottumwa,US,1579330601,90,41.02,-92.41,95,33.8,14.5
Lagoa,PT,1579330601,0,39.05,-27.98,88,62.04,9.84
Patu,BR,1579330602,100,-6.11,-37.64,70,79.68,9.08
Mayo,US,1579330602,1,38.89,-76.51,53,30.0,4.7
Santiago de Chuco,PE,1579330602,54,-8.15,-78.18,88,42.03,6.76
Hamilton,US,1579330602,90,39.18,-84.53,64,34.0,3.36
Hirara,JP,1579330603,75,24.8,125.28,59,64.4,12.75
Codajas,BR,1579330603,94,-3.84,-62.06,98,74.14,1.88
Ruska Poliana,UA,1579330603,0,49.42,31.92,89,30.92,3.06
Ambon,ID,1579330309,32,-3.7,128.18,78,83.61,15.5
Naliya,IN,1579330603,0,23.27,68.83,24,69.84,8.79
Lorengau,PG,1579330604,56,-2.02,147.27,76,84.85,26.22
Nizhnyaya Tavda,RU,1579330604,81,57.67,66.17,82,5.7,9.48
Iqaluit,CA,1579330604,90,63.75,-68.51,76,-11.0,5.82
Crestview,US,1579330604,90,30.76,-86.57,67,62.6,10.29
Gamba,GA,1579330605,94,-2.65,10.0,89,77.05,3.09
Tabas,IR,1579330605,42,33.6,56.92,52,44.6,2.24
Kristinestad,FI,1579330605,100,62.27,21.38,91,38.62,11.92
Lyuban,BY,1579330605,0,52.8,28.0,78,30.25,10.31
Ilulissat,GL,1579330605,87,69.22,-51.1,54,3.2,8.05
Goleniow,PL,1579330606,75,53.56,14.83,93,43.0,5.82
Palu,ID,1579330606,37,-0.89,119.87,50,84.63,5.1
Atasu,KZ,1579330606,100,48.68,71.64,95,17.53,13.49
Ladyzhyn,UA,1579330606,7,48.69,29.24,89,28.99,8.37
Port Moresby,PG,1579330526,40,-9.44,147.18,56,93.2,17.22
Esperance,AU,1579330607,90,-33.87,121.9,55,66.2,16.11
Hilton Head,US,1579330607,90,32.22,-80.75,70,48.0,10.29
Urambo,TZ,1579330607,100,-5.07,32.05,98,65.16,6.24
Dubti,ET,1579330607,5,11.74,41.09,57,69.24,4.54
Acamixtla,MX,1579330608,52,18.57,-99.58,55,69.01,3.71
Valparaiso,CL,1579330608,75,-33.04,-71.63,87,59.0,3.31
Afyonkarahisar,TR,1579330608,6,38.75,30.67,92,20.91,5.82
Acari,PE,1579330608,69,-15.43,-74.62,92,64.98,2.19
Praia da Vitoria,PT,1579330609,20,38.73,-27.07,100,57.2,7.27
General Roca,AR,1579330609,0,-39.03,-67.58,30,77.52,15.82
Burley,US,1579330609,1,42.54,-113.79,67,26.6,3.36
Ayan,RU,1579330609,100,56.45,138.17,76,2.82,6.85
Nishihara,JP,1579330609,75,26.18,127.76,63,60.8,21.92
Pangody,RU,1579330610,100,65.85,74.49,96,1.56,7.02
Yumen,CN,1579330610,49,40.28,97.2,42,24.21,25.46
Seoul,KR,1579330364,1,37.57,126.98,35,42.8,3.36
Batangafo,CF,1579330610,16,7.3,18.28,30,67.78,4.23
Pisco,PE,1579330610,1,-13.7,-76.22,94,68.0,14.99
Nanga Eboko,CM,1579330611,73,4.68,12.37,99,66.47,1.34
Muzaffarnagar,IN,1579330611,0,29.47,77.68,70,61.05,3.22
Rodolfo Sanchez Taboada,MX,1579330611,0,31.72,-116.57,82,50.41,2.66
Monte Alegre,BR,1579330611,76,-2.01,-54.07,85,75.52,4.45
Tsiroanomandidy,MG,1579330611,100,-18.77,46.03,84,73.04,3.24
Vagamo,NO,1579330612,100,61.88,9.1,97,26.78,3.22
Bantou,CN,1579330612,73,26.22,117.49,60,52.21,3.27
San Patricio,MX,1579330612,79,19.22,-104.7,71,79.7,4.76
Petropavlovsk-Kamchatsky,RU,1579330522,2,53.05,158.65,78,8.6,2.24
Port Blair,IN,1579330613,20,11.67,92.75,70,84.2,10.29
Porbandar,IN,1579330613,0,21.64,69.61,31,73.4,13.87
Qasigiannguit,GL,1579330613,87,68.82,-51.19,54,3.2,8.05
Verkhnyaya Inta,RU,1579330614,98,65.98,60.31,98,2.28,13.58
Nkwerre,NG,1579330614,8,5.76,7.11,81,68.61,0.6
Sao Borja,BR,1579330614,47,-28.66,-56.0,65,65.12,8.1
Ribeira Grande,PT,1579330614,44,38.52,-28.7,88,58.44,9.53
Shirokiy,RU,1579330614,100,49.76,129.52,89,0.48,3.2
Dingle,PH,1579330615,24,11.0,122.67,78,82.9,10.85
San Quintin,MX,1579330615,49,30.48,-115.95,2,42.01,4.0
Estacion Coahuila,MX,1579330615,5,32.19,-115.0,43,51.8,3.36
Lingao,CN,1579330615,84,19.91,109.69,80,70.97,15.08
Sistranda,NO,1579330616,68,63.73,8.83,86,39.2,12.75
Dunda,TZ,1579330616,100,-8.12,34.25,98,65.01,3.78
Chalus,IR,1579330616,90,36.66,51.42,87,48.2,2.3
Vila,PT,1579330616,75,42.03,-8.16,93,59.0,11.41
Coyhaique,CL,1579330617,2,-45.58,-72.07,99,42.12,6.06
Yar-Sale,RU,1579330617,100,66.83,70.83,93,-5.6,7.56
Tautira,PF,1579330617,20,-17.73,-149.15,69,82.4,6.93
Sotik Post,KE,1579330617,99,-0.78,35.34,69,66.79,0.81
Guozhen,CN,1579330618,100,34.37,107.36,35,40.6,7.18
Cap Malheureux,MU,1579330618,75,-19.98,57.61,79,84.2,10.29
Saeby,DK,1579330618,99,57.33,10.52,93,42.01,5.99
Kjollefjord,NO,1579330618,0,70.95,27.35,77,17.06,9.55
Los Llanos de Aridane,ES,1579330619,0,28.66,-17.92,72,60.8,9.17
Kurmanayevka,RU,1579330619,67,52.51,52.07,96,20.68,2.08
Chapais,CA,1579330619,90,49.78,-74.85,75,-16.6,1.81
Husavik,IS,1579330620,90,66.04,-17.34,72,32.0,31.09
Shache,CN,1579330620,46,38.42,77.24,80,25.0,3.04
Laguna,US,1579330430,1,38.42,-121.42,100,44.6,3.36
Ahipara,NZ,1579330620,0,-35.17,173.17,65,72.0,16.33
Ulladulla,AU,1579330621,100,-35.35,150.47,82,68.0,13.87
Dunedin,NZ,1579330621,98,-45.87,170.5,64,66.99,15.12
Alofi,NU,1579330621,100,-19.06,-169.92,79,81.88,37.89
Mersa Matruh,EG,1579330621,75,31.35,27.25,87,51.8,10.29
Muravlenko,RU,1579330622,96,63.79,74.52,93,3.04,20.65
Sabang,ID,1579330622,20,5.89,95.32,79,82.17,19.75
Hella,NO,1579330622,95,67.2,14.43,83,32.0,27.51
Desnogorsk,RU,1579330622,11,54.15,33.28,96,27.34,5.44
Sitka,US,1579330622,20,57.05,-135.33,42,26.6,10.29
Krasnovka,RU,1579330623,97,48.82,40.09,88,30.85,6.89
Itaituba,BR,1579330623,84,-4.28,-55.98,90,73.38,1.03
Qaqortoq,GL,1579330623,90,60.72,-46.03,78,17.6,4.7
Port-Gentil,GA,1579330623,90,-0.72,8.78,94,78.8,3.36
Alghero,IT,1579330624,20,40.56,8.32,66,53.6,13.87
Gorodovikovsk,RU,1579330624,85,46.09,41.93,92,29.71,4.7
Thinadhoo,MV,1579330577,98,0.53,72.93,75,83.01,14.25
Half Moon Bay,US,1579330624,1,37.46,-122.43,81,46.99,4.88
Clyde River,CA,1579330624,1,70.47,-68.59,74,-22.0,6.93
Turukhansk,RU,1579330625,97,65.82,87.98,98,-21.08,6.13
Guarapari,BR,1579330625,90,-20.67,-40.5,88,75.2,5.82
Hong Kong,HK,1579330606,20,22.29,114.16,56,71.01,8.05
Esna,EG,1579330625,46,25.29,32.55,81,53.6,6.93
San Jose,US,1579330463,1,37.34,-121.89,70,46.99,3.11
Marsh Harbour,BS,1579330626,54,26.54,-77.06,73,69.01,28.43
Bathsheba,BB,1579330626,75,13.22,-59.52,74,78.8,14.99
Beihai,CN,1579330626,95,21.48,109.1,64,62.71,5.57
Jardim,BR,1579330626,100,-21.48,-56.14,94,74.43,0.74
Kendari,ID,1579330626,49,-3.94,122.5,67,87.15,2.75
Pamanukan,ID,1579330627,6,-6.28,107.81,57,90.84,6.04
Toro,CO,1579330627,20,4.61,-76.08,77,69.8,9.17
Sao Filipe,CV,1579330627,2,14.9,-24.5,70,69.58,13.82
Nichinan,JP,1579330627,40,31.6,131.37,35,57.2,19.46
Adwa,ET,1579330628,0,14.16,38.9,43,66.61,3.0
Shilovo,RU,1579330628,96,54.32,40.87,83,36.0,1.01
Guiren,CN,1579330628,3,33.67,118.19,61,41.97,4.05
Byron Bay,AU,1579330503,90,-28.65,153.62,94,77.0,9.17
Ouesso,CG,1579330629,71,1.61,16.05,74,74.48,3.91
Belogorsk,RU,1579330629,100,50.92,128.46,92,-0.62,2.73
Whitehorse,CA,1579330609,5,60.72,-135.05,65,-36.0,2.3
Mazagao,BR,1579330629,75,-0.12,-51.29,100,78.8,6.93
Sioux Lookout,CA,1579330630,90,50.1,-91.92,85,15.8,6.93
Anadyr,RU,1579330630,100,64.75,177.48,85,24.8,26.84
Mongo,TD,1579330630,32,12.18,18.69,34,61.77,5.93
El Alto,PE,1579330630,99,-4.27,-81.21,74,72.88,7.65
Viru,PE,1579330631,75,-8.42,-78.75,94,68.0,6.93
Gazimurskiy Zavod,RU,1579330631,8,51.55,118.33,85,4.01,2.33
Columbus,US,1579330530,90,39.96,-83.0,74,30.99,6.93
Labuhan,ID,1579330631,43,-6.88,112.21,64,87.55,0.96
Tessalit,ML,1579330632,28,20.2,1.01,37,54.86,12.64
Srednekolymsk,RU,1579330632,100,67.45,153.68,98,-17.28,5.57
Nelson Bay,AU,1579330632,90,-32.72,152.15,88,71.01,14.99
Salina,US,1579330621,90,38.84,-97.61,93,39.0,9.17
Buribay,RU,1579330633,100,51.96,58.16,93,23.04,10.98
Iida,JP,1579330633,98,35.52,137.82,84,39.99,5.99
Aloleng,PH,1579330633,38,16.13,119.78,56,87.89,5.21
Ofunato,JP,1579330633,75,39.07,141.72,59,35.6,10.29
Valeggio sul Mincio,IT,1579330634,75,45.35,10.74,87,45.0,2.24
Nizhniy Ingash,RU,1579330634,100,56.2,96.53,88,21.02,18.66
Buraidah,SA,1579330634,75,26.33,43.98,48,64.4,9.17
Caetite,BR,1579330634,0,-14.07,-42.48,93,63.57,5.32
Tenenkou,ML,1579330635,0,14.46,-4.92,21,60.71,11.68
Asau,RO,1579330635,75,46.43,26.4,64,32.0,9.17
Diego de Almagro,CL,1579330635,2,-26.37,-70.05,49,64.02,1.52
Jalingo,NG,1579330635,13,8.88,11.37,33,65.57,6.67
Hambantota,LK,1579330635,40,6.12,81.12,70,87.8,12.75
Kumul,CN,1579330531,1,42.8,93.45,54,17.35,2.04
Ternate,ID,1579330636,53,0.8,127.4,69,82.99,8.39
Moussoro,TD,1579330636,63,13.64,16.49,38,60.84,15.14
Buchanan,LR,1579330637,75,5.88,-10.05,94,75.2,5.82
Pangnirtung,CA,1579330637,96,66.15,-65.71,95,-19.52,0.81
Sechura,PE,1579330637,85,-5.56,-80.82,88,70.0,10.65
Savasleyka,RU,1579330637,97,55.46,42.32,96,31.5,6.17
Praia,CV,1579330637,5,14.92,-23.51,82,68.0,17.22
Ouallam,NE,1579330638,0,14.32,2.09,27,59.83,10.56
Goderich,CA,1579330500,100,43.75,-81.72,80,19.0,17.0
At-Bashi,KG,1579330638,0,41.17,75.81,52,2.19,7.49
Stuttgart,DE,1579330610,20,48.78,9.18,86,42.01,3.36
Antsohihy,MG,1579330638,93,-14.88,47.99,79,83.95,3.0
Kilindoni,TZ,1579330639,100,-7.91,39.67,82,82.06,15.05
Salta,AR,1579330513,75,-24.79,-65.41,93,68.0,2.24
Gemena,CD,1579330639,98,3.25,19.77,34,71.24,2.51
Mariehamn,AX,1579330639,90,60.1,19.93,93,39.2,18.34
Udachny,RU,1579330640,98,66.42,112.4,93,-6.84,11.12
Beloha,MG,1579330640,33,-25.17,45.05,55,83.25,4.94
Kokkola,FI,1579330640,90,63.83,23.08,100,39.0,6.93
Kavaratti,IN,1579330640,20,10.57,72.64,58,86.0,6.93
Puerto Escondido,MX,1579330640,18,15.85,-97.07,59,71.55,3.94
City of San Pedro,PH,1579330386,75,14.35,121.02,70,87.8,4.7
Mogadishu,SO,1579330641,93,2.04,45.34,51,82.4,17.22
Kupang,ID,1579330641,40,-10.17,123.58,74,86.0,12.75
Valdobbiadene,IT,1579330641,75,45.9,11.99,93,45.0,2.24
Pitanga,BR,1579330641,1,-24.76,-51.76,91,60.31,9.01
Rehoboth,NA,1579330642,37,-23.32,17.08,42,74.61,2.21
Arman,RU,1579330642,100,59.7,150.17,77,2.07,8.03
Salamiyah,SY,1579330642,88,35.01,37.05,82,43.5,2.44
Tokoroa,NZ,1579330642,63,-38.23,175.87,57,71.01,5.99
Kumo,NG,1579330642,81,10.04,11.21,37,63.05,9.89
Vilhena,BR,1579330643,62,-12.74,-60.15,96,70.66,2.89
Saint Anthony,US,1579330643,90,45.02,-93.22,85,26.01,10.29
Juneau,US,1579330351,1,58.3,-134.42,48,17.6,9.17
Aswan,EG,1579330592,21,24.09,32.91,66,53.6,9.17
Tukrah,LY,1579330643,5,32.53,20.58,66,55.18,11.86
Gberia Fotombu,SL,1579330644,0,9.88,-11.17,35,61.0,1.61
Emerald,AU,1579330644,40,-23.53,148.17,23,97.0,14.99
Sorong,ID,1579330644,64,-0.88,131.25,60,87.42,6.51
Bato,PH,1579330644,5,13.35,123.37,73,81.95,6.44
Kinablangan,PH,1579330645,6,7.69,126.55,63,80.98,6.76
Fairbanks,US,1579330645,1,64.84,-147.72,74,-6.0,1.97
Severo-Yeniseyskiy,RU,1579330645,100,60.37,93.04,93,16.99,12.3
Polunochnoye,RU,1579330645,100,60.87,60.42,87,10.63,3.4
Salinopolis,BR,1579330646,100,-0.61,-47.36,82,81.27,14.97
Sinjar,IQ,1579330646,99,36.32,41.88,87,44.64,4.47
Tazovsky,RU,1579330646,93,67.47,78.7,94,-11.94,8.12
Vostok,RU,1579330646,31,46.49,135.88,88,11.59,1.83
Valleyview,CA,1579330646,81,55.07,-117.29,96,-20.63,3.71
Kieta,PG,1579330647,45,-6.22,155.63,64,84.99,2.57
Mweka,CD,1579330647,100,-4.85,21.57,97,71.46,2.59
Trairi,BR,1579330647,91,-3.28,-39.27,91,74.57,3.2
Tecolutla,MX,1579330648,18,20.48,-97.02,92,70.92,5.06
Beyneu,KZ,1579330648,100,45.32,55.2,76,31.69,9.55
Norman Wells,CA,1579330648,5,65.28,-126.83,76,-11.2,6.93
Manzhouli,CN,1579330648,100,49.6,117.43,89,2.5,1.61
Ambilobe,MG,1579330649,100,-13.2,49.05,77,83.98,2.91
Tateyama,JP,1579330649,75,34.98,139.87,93,39.2,16.11
Oswego,US,1579330649,1,43.45,-76.15,85,10.4,1.14
Bafq,IR,1579330649,97,31.61,55.41,36,53.85,14.41
Fonte Boa,BR,1579330650,46,-2.5,-66.27,96,72.28,2.13
Taku,CN,1579330650,83,39.02,117.65,74,30.2,4.47
Moroni,KM,1579330650,40,-11.7,43.26,79,84.2,13.87
Carlisle,US,1579330650,1,40.2,-77.19,62,25.0,3.2
Tuy Hoa,VN,1579330650,52,13.08,109.3,74,75.36,15.86
Liuhe,CN,1579330651,2,42.24,125.72,57,24.35,5.08
Port Hedland,AU,1579330651,89,-20.32,118.57,63,93.2,19.46
Nabire,ID,1579330651,80,-3.37,135.48,80,83.55,3.06
Bukachacha,RU,1579330651,0,52.98,116.92,81,3.18,2.01
Markova,UA,1579330368,90,48.68,24.41,92,30.2,6.71
Chicama,PE,1579330652,75,-7.84,-79.15,94,68.0,6.93
Kabo,CF,1579330652,16,7.7,18.63,30,67.78,4.23
Rundu,NA,1579330652,17,-17.93,19.77,60,75.2,3.36
Bandarbeyla,SO,1579330652,84,9.49,50.81,77,77.04,25.32
Pokhara,NP,1579330653,0,28.23,83.98,42,68.02,1.79
Monrovia,LR,1579330653,75,6.3,-10.8,94,75.2,5.82
Texarkana,US,1579330653,90,33.43,-94.05,100,60.01,12.75
Isla Mujeres,MX,1579330653,20,21.23,-86.73,69,77.0,10.29
Jega,NG,1579330653,0,12.22,4.38,27,61.39,13.85
Kahului,US,1579330654,75,20.89,-156.47,78,73.4,16.11
Zverinogolovskoye,RU,1579330654,94,54.46,64.85,95,19.49,5.46
Puteyets,RU,1579330654,82,65.17,57.09,97,2.32,4.54
Sehithwa,BW,1579330654,9,-20.47,22.72,68,72.7,3.09
Luwuk,ID,1579330654,100,-0.95,122.79,79,83.77,12.06
Yuli,NG,1579330655,72,9.7,10.27,30,66.07,10.33
Luena,AO,1579330655,20,-11.78,19.92,94,68.0,8.05
Upington,ZA,1579330655,57,-28.45,21.26,39,82.4,12.75
Deputatsky,RU,1579330656,5,69.3,139.9,96,-29.7,1.14
Morden,CA,1579330656,40,49.19,-98.1,100,21.2,5.82
Sarangani,PH,1579330656,0,5.4,125.46,77,80.8,19.3
Ekhabi,RU,1579330656,0,53.51,142.97,87,-1.97,7.85
Kununurra,AU,1579330657,63,-15.77,128.73,47,96.8,11.41
Birao,CF,1579330657,26,10.28,22.79,24,66.34,16.67
Mackay,AU,1579330657,31,-21.15,149.2,62,87.8,12.75
Biltine,TD,1579330657,49,14.53,20.92,31,63.19,15.7
